$GPGGA,134758.503,4555.278,N,00452.985,E,1,12,1.0,94.0,M,0.0,M,,*6F
$GPGSA,A,3,01,02,03,04,05,06,07,08,09,10,11,12,1.0,1.0,1.0*30
$GPRMC,134758.503,A,4555.278,N,00452.985,E,2043.0,324.8,310320,000.0,W*40
$GPGGA,134759.503,4555.787,N,00452.624,E,1,12,1.0,15.0,M,0.0,M,,*6F
$GPGSA,A,3,01,02,03,04,05,06,07,08,09,10,11,12,1.0,1.0,1.0*30
$GPRMC,134759.503,A,4555.787,N,00452.624,E,2796.6,308.1,310320,000.0,W*4E
$GPGGA,134800.503,4556.367,N,00451.883,E,1,12,1.0,90.0,M,0.0,M,,*65
$GPGSA,A,3,01,02,03,04,05,06,07,08,09,10,11,12,1.0,1.0,1.0*30
$GPRMC,134800.503,A,4556.367,N,00451.883,E,4731.0,289.8,310320,000.0,W*48
$GPGGA,134801.503,4556.969,N,00450.204,E,1,12,1.0,42.0,M,0.0,M,,*64
$GPGSA,A,3,01,02,03,04,05,06,07,08,09,10,11,12,1.0,1.0,1.0*30
$GPRMC,134801.503,A,4556.969,N,00450.204,E,5483.0,282.2,310320,000.0,W*43
$GPGGA,134802.503,4557.420,N,00448.113,E,1,12,1.0,90.0,M,0.0,M,,*6A
$GPGSA,A,3,01,02,03,04,05,06,07,08,09,10,11,12,1.0,1.0,1.0*30
$GPRMC,134802.503,A,4557.420,N,00448.113,E,2641.2,273.5,310320,000.0,W*4D
$GPGGA,134803.503,4557.484,N,00447.062,E,1,12,1.0,88.0,M,0.0,M,,*6D
$GPGSA,A,3,01,02,03,04,05,06,07,08,09,10,11,12,1.0,1.0,1.0*30
$GPRMC,134803.503,A,4557.484,N,00447.062,E,2070.7,279.6,310320,000.0,W*42
$GPGGA,134804.503,4557.620,N,00446.259,E,1,12,1.0,42.0,M,0.0,M,,*6D
$GPGSA,A,3,01,02,03,04,05,06,07,08,09,10,11,12,1.0,1.0,1.0*30
$GPRMC,134804.503,A,4557.620,N,00446.259,E,2331.0,287.9,310320,000.0,W*4D
$GPGGA,134805.503,4557.892,N,00445.415,E,1,12,1.0,90.0,M,0.0,M,,*66
$GPGSA,A,3,01,02,03,04,05,06,07,08,09,10,11,12,1.0,1.0,1.0*30
$GPRMC,134805.503,A,4557.892,N,00445.415,E,1030.6,318.5,310320,000.0,W*4A
$GPGGA,134806.503,4558.136,N,00445.198,E,1,12,1.0,16.0,M,0.0,M,,*6D
$GPGSA,A,3,01,02,03,04,05,06,07,08,09,10,11,12,1.0,1.0,1.0*30
$GPRMC,134806.503,A,4558.136,N,00445.198,E,1225.9,020.5,310320,000.0,W*40
$GPGGA,134807.503,4558.465,N,00445.322,E,1,12,1.0,50.0,M,0.0,M,,*6C
$GPGSA,A,3,01,02,03,04,05,06,07,08,09,10,11,12,1.0,1.0,1.0*30
$GPRMC,134807.503,A,4558.465,N,00445.322,E,1388.6,330.2,310320,000.0,W*4D
$GPGGA,134808.503,4558.823,N,00445.116,E,1,12,1.0,36.0,M,0.0,M,,*68
$GPGSA,A,3,01,02,03,04,05,06,07,08,09,10,11,12,1.0,1.0,1.0*30
$GPRMC,134808.503,A,4558.823,N,00445.116,E,1182.9,337.0,310320,000.0,W*4B
$GPGGA,134809.503,4559.138,N,00444.982,E,1,12,1.0,79.0,M,0.0,M,,*6F
$GPGSA,A,3,01,02,03,04,05,06,07,08,09,10,11,12,1.0,1.0,1.0*30
$GPRMC,134809.503,A,4559.138,N,00444.982,E,1216.0,007.0,310320,000.0,W*4B
$GPGGA,134810.503,4559.474,N,00445.023,E,1,12,1.0,80.0,M,0.0,M,,*69
$GPGSA,A,3,01,02,03,04,05,06,07,08,09,10,11,12,1.0,1.0,1.0*30
$GPRMC,134810.503,A,4559.474,N,00445.023,E,1291.2,355.1,310320,000.0,W*45
$GPGGA,134811.503,4559.832,N,00444.992,E,1,12,1.0,77.0,M,0.0,M,,*64
$GPGSA,A,3,01,02,03,04,05,06,07,08,09,10,11,12,1.0,1.0,1.0*30
$GPRMC,134811.503,A,4559.832,N,00444.992,E,1742.8,355.1,310320,000.0,W*49
$GPGGA,134812.503,4600.315,N,00444.951,E,1,12,1.0,59.0,M,0.0,M,,*69
$GPGSA,A,3,01,02,03,04,05,06,07,08,09,10,11,12,1.0,1.0,1.0*30
$GPRMC,134812.503,A,4600.315,N,00444.951,E,2299.9,210.6,310320,000.0,W*42
$GPGGA,134813.503,4559.725,N,00444.601,E,1,12,1.0,78.0,M,0.0,M,,*6A
$GPGSA,A,3,01,02,03,04,05,06,07,08,09,10,11,12,1.0,1.0,1.0*30
$GPRMC,134813.503,A,4559.725,N,00444.601,E,1884.2,208.1,310320,000.0,W*41
$GPGGA,134814.503,4559.235,N,00444.338,E,1,12,1.0,45.0,M,0.0,M,,*66
$GPGSA,A,3,01,02,03,04,05,06,07,08,09,10,11,12,1.0,1.0,1.0*30
$GPRMC,134814.503,A,4559.235,N,00444.338,E,2254.2,215.1,310320,000.0,W*45
$GPGGA,134815.503,4558.673,N,00443.942,E,1,12,1.0,48.0,M,0.0,M,,*60
$GPGSA,A,3,01,02,03,04,05,06,07,08,09,10,11,12,1.0,1.0,1.0*30
$GPRMC,134815.503,A,4558.673,N,00443.942,E,2062.4,237.5,310320,000.0,W*46
$GPGGA,134816.503,4558.286,N,00443.334,E,1,12,1.0,31.0,M,0.0,M,,*66
$GPGSA,A,3,01,02,03,04,05,06,07,08,09,10,11,12,1.0,1.0,1.0*30
$GPRMC,134816.503,A,4558.286,N,00443.334,E,2104.6,257.9,310320,000.0,W*49
$GPGGA,134817.503,4558.114,N,00442.531,E,1,12,1.0,84.0,M,0.0,M,,*6D
$GPGSA,A,3,01,02,03,04,05,06,07,08,09,10,11,12,1.0,1.0,1.0*30
$GPRMC,134817.503,A,4558.114,N,00442.531,E,2092.9,267.5,310320,000.0,W*4C
$GPGGA,134818.503,4558.079,N,00441.696,E,1,12,1.0,65.0,M,0.0,M,,*65
$GPGSA,A,3,01,02,03,04,05,06,07,08,09,10,11,12,1.0,1.0,1.0*30
$GPRMC,134818.503,A,4558.079,N,00441.696,E,2029.9,289.7,310320,000.0,W*46
$GPGGA,134819.503,4558.336,N,00440.975,E,1,12,1.0,79.0,M,0.0,M,,*6F
$GPGSA,A,3,01,02,03,04,05,06,07,08,09,10,11,12,1.0,1.0,1.0*30
$GPRMC,134819.503,A,4558.336,N,00440.975,E,1660.7,325.3,310320,000.0,W*49
$GPGGA,134820.503,4558.751,N,00440.687,E,1,12,1.0,58.0,M,0.0,M,,*62
$GPGSA,A,3,01,02,03,04,05,06,07,08,09,10,11,12,1.0,1.0,1.0*30
$GPRMC,134820.503,A,4558.751,N,00440.687,E,803.0,093.9,310320,000.0,W*7D
$GPGGA,134821.503,4558.730,N,00441.006,E,1,12,1.0,51.0,M,0.0,M,,*6A
$GPGSA,A,3,01,02,03,04,05,06,07,08,09,10,11,12,1.0,1.0,1.0*30
$GPRMC,134821.503,A,4558.730,N,00441.006,E,1190.6,093.5,310320,000.0,W*4D
$GPGGA,134822.503,4558.701,N,00441.480,E,1,12,1.0,77.0,M,0.0,M,,*61
$GPGSA,A,3,01,02,03,04,05,06,07,08,09,10,11,12,1.0,1.0,1.0*30
$GPRMC,134822.503,A,4558.701,N,00441.480,E,437.7,054.0,310320,000.0,W*70
$GPGGA,134823.503,4558.789,N,00441.601,E,1,12,1.0,100.0,M,0.0,M,,*6B
$GPGSA,A,3,01,02,03,04,05,06,07,08,09,10,11,12,1.0,1.0,1.0*30
$GPRMC,134823.503,A,4558.789,N,00441.601,E,449.0,310.6,310320,000.0,W*71
$GPGGA,134824.503,4558.886,N,00441.488,E,1,12,1.0,32.0,M,0.0,M,,*6F
$GPGSA,A,3,01,02,03,04,05,06,07,08,09,10,11,12,1.0,1.0,1.0*30
$GPRMC,134824.503,A,4558.886,N,00441.488,E,606.8,267.9,310320,000.0,W*7A
$GPGGA,134825.503,4558.877,N,00441.246,E,1,12,1.0,96.0,M,0.0,M,,*64
$GPGSA,A,3,01,02,03,04,05,06,07,08,09,10,11,12,1.0,1.0,1.0*30
$GPRMC,134825.503,A,4558.877,N,00441.246,E,624.2,258.6,310320,000.0,W*78
$GPGGA,134826.503,4558.828,N,00441.006,E,1,12,1.0,100.0,M,0.0,M,,*6B
$GPGSA,A,3,01,02,03,04,05,06,07,08,09,10,11,12,1.0,1.0,1.0*30
$GPRMC,134826.503,A,4558.828,N,00441.006,E,790.1,278.3,310320,000.0,W*7D
$GPGGA,134827.503,4558.873,N,00440.697,E,1,12,1.0,29.0,M,0.0,M,,*6B
$GPGSA,A,3,01,02,03,04,05,06,07,08,09,10,11,12,1.0,1.0,1.0*30
$GPRMC,134827.503,A,4558.873,N,00440.697,E,908.3,009.3,310320,000.0,W*74
$GPGGA,134828.503,4559.124,N,00440.738,E,1,12,1.0,16.0,M,0.0,M,,*6A
$GPGSA,A,3,01,02,03,04,05,06,07,08,09,10,11,12,1.0,1.0,1.0*30
$GPRMC,134828.503,A,4559.124,N,00440.738,E,1327.1,038.6,310320,000.0,W*46
$GPGGA,134829.503,4559.446,N,00440.996,E,1,12,1.0,33.0,M,0.0,M,,*60
$GPGSA,A,3,01,02,03,04,05,06,07,08,09,10,11,12,1.0,1.0,1.0*30
$GPRMC,134829.503,A,4559.446,N,00440.996,E,657.2,122.0,310320,000.0,W*70
$GPGGA,134830.503,4559.324,N,00441.192,E,1,12,1.0,10.0,M,0.0,M,,*66
$GPGSA,A,3,01,02,03,04,05,06,07,08,09,10,11,12,1.0,1.0,1.0*30
$GPRMC,134830.503,A,4559.324,N,00441.192,E,474.0,210.6,310320,000.0,W*73
$GPGGA,134831.503,4559.202,N,00441.120,E,1,12,1.0,14.0,M,0.0,M,,*6B
$GPGSA,A,3,01,02,03,04,05,06,07,08,09,10,11,12,1.0,1.0,1.0*30
$GPRMC,134831.503,A,4559.202,N,00441.120,E,445.0,097.0,310320,000.0,W*77
$GPGGA,134832.503,4559.181,N,00441.295,E,1,12,1.0,22.0,M,0.0,M,,*6D
$GPGSA,A,3,01,02,03,04,05,06,07,08,09,10,11,12,1.0,1.0,1.0*30
$GPRMC,134832.503,A,4559.181,N,00441.295,E,555.3,029.8,310320,000.0,W*7F
$GPGGA,134833.503,4559.324,N,00441.377,E,1,12,1.0,31.0,M,0.0,M,,*6C
$GPGSA,A,3,01,02,03,04,05,06,07,08,09,10,11,12,1.0,1.0,1.0*30
$GPRMC,134833.503,A,4559.324,N,00441.377,E,464.0,270.0,310320,000.0,W*78
$GPGGA,134834.503,4559.324,N,00441.192,E,1,12,1.0,42.0,M,0.0,M,,*62
$GPGSA,A,3,01,02,03,04,05,06,07,08,09,10,11,12,1.0,1.0,1.0*30
$GPRMC,134834.503,A,4559.324,N,00441.192,E,661.6,302.3,310320,000.0,W*70
$GPGGA,134835.503,4559.447,N,00440.996,E,1,12,1.0,90.0,M,0.0,M,,*6C
$GPGSA,A,3,01,02,03,04,05,06,07,08,09,10,11,12,1.0,1.0,1.0*30
$GPRMC,134835.503,A,4559.447,N,00440.996,E,1071.7,057.2,310320,000.0,W*4B
$GPGGA,134836.503,4559.650,N,00441.310,E,1,12,1.0,87.0,M,0.0,M,,*6E
$GPGSA,A,3,01,02,03,04,05,06,07,08,09,10,11,12,1.0,1.0,1.0*30
$GPRMC,134836.503,A,4559.650,N,00441.310,E,1089.1,073.8,310320,000.0,W*44
$GPGGA,134837.503,4559.766,N,00441.712,E,1,12,1.0,65.0,M,0.0,M,,*6D
$GPGSA,A,3,01,02,03,04,05,06,07,08,09,10,11,12,1.0,1.0,1.0*30
$GPRMC,134837.503,A,4559.766,N,00441.712,E,681.0,135.3,310320,000.0,W*71
$GPGGA,134838.503,4559.610,N,00441.866,E,1,12,1.0,89.0,M,0.0,M,,*6E
$GPGSA,A,3,01,02,03,04,05,06,07,08,09,10,11,12,1.0,1.0,1.0*30
$GPRMC,134838.503,A,4559.610,N,00441.866,E,853.5,159.1,310320,000.0,W*7E
$GPGGA,134839.503,4559.381,N,00441.954,E,1,12,1.0,60.0,M,0.0,M,,*62
$GPGSA,A,3,01,02,03,04,05,06,07,08,09,10,11,12,1.0,1.0,1.0*30
$GPRMC,134839.503,A,4559.381,N,00441.954,E,1048.0,172.9,310320,000.0,W*45
$GPGGA,134840.503,4559.091,N,00441.990,E,1,12,1.0,74.0,M,0.0,M,,*66
$GPGSA,A,3,01,02,03,04,05,06,07,08,09,10,11,12,1.0,1.0,1.0*30
$GPRMC,134840.503,A,4559.091,N,00441.990,E,1034.2,186.1,310320,000.0,W*4B
$GPGGA,134841.503,4558.805,N,00441.959,E,1,12,1.0,66.0,M,0.0,M,,*66
$GPGSA,A,3,01,02,03,04,05,06,07,08,09,10,11,12,1.0,1.0,1.0*30
$GPRMC,134841.503,A,4558.805,N,00441.959,E,973.4,196.2,310320,000.0,W*74
$GPGGA,134842.503,4558.540,N,00441.882,E,1,12,1.0,15.0,M,0.0,M,,*6E
$GPGSA,A,3,01,02,03,04,05,06,07,08,09,10,11,12,1.0,1.0,1.0*30
$GPRMC,134842.503,A,4558.540,N,00441.882,E,880.7,204.9,310320,000.0,W*71
$GPGGA,134843.503,4558.308,N,00441.774,E,1,12,1.0,20.0,M,0.0,M,,*63
$GPGSA,A,3,01,02,03,04,05,06,07,08,09,10,11,12,1.0,1.0,1.0*30
$GPRMC,134843.503,A,4558.308,N,00441.774,E,835.0,198.9,310320,000.0,W*73
$GPGGA,134844.503,4558.082,N,00441.696,E,1,12,1.0,60.0,M,0.0,M,,*68
$GPGSA,A,3,01,02,03,04,05,06,07,08,09,10,11,12,1.0,1.0,1.0*30
$GPRMC,134844.503,A,4558.082,N,00441.696,E,842.1,034.2,310320,000.0,W*75
$GPGGA,134845.503,4558.293,N,00441.841,E,1,12,1.0,35.0,M,0.0,M,,*6F
$GPGSA,A,3,01,02,03,04,05,06,07,08,09,10,11,12,1.0,1.0,1.0*30
$GPRMC,134845.503,A,4558.293,N,00441.841,E,909.2,025.2,310320,000.0,W*7F
$GPGGA,134846.503,4558.533,N,00441.954,E,1,12,1.0,29.0,M,0.0,M,,*64
$GPGSA,A,3,01,02,03,04,05,06,07,08,09,10,11,12,1.0,1.0,1.0*30
$GPRMC,134846.503,A,4558.533,N,00441.954,E,1006.3,016.2,310320,000.0,W*42
$GPGGA,134847.503,4558.807,N,00442.034,E,1,12,1.0,15.0,M,0.0,M,,*63
$GPGSA,A,3,01,02,03,04,05,06,07,08,09,10,11,12,1.0,1.0,1.0*30
$GPRMC,134847.503,A,4558.807,N,00442.034,E,1047.1,006.1,310320,000.0,W*40
$GPGGA,134848.503,4559.097,N,00442.065,E,1,12,1.0,67.0,M,0.0,M,,*68
$GPGSA,A,3,01,02,03,04,05,06,07,08,09,10,11,12,1.0,1.0,1.0*30
$GPRMC,134848.503,A,4559.097,N,00442.065,E,1060.8,353.0,310320,000.0,W*45
$GPGGA,134849.503,4559.390,N,00442.028,E,1,12,1.0,89.0,M,0.0,M,,*64
$GPGSA,A,3,01,02,03,04,05,06,07,08,09,10,11,12,1.0,1.0,1.0*30
$GPRMC,134849.503,A,4559.390,N,00442.028,E,875.5,338.5,310320,000.0,W*71
$GPGGA,134850.503,4559.625,N,00441.936,E,1,12,1.0,82.0,M,0.0,M,,*62
$GPGSA,A,3,01,02,03,04,05,06,07,08,09,10,11,12,1.0,1.0,1.0*30
$GPRMC,134850.503,A,4559.625,N,00441.936,E,677.4,315.8,310320,000.0,W*78
$GPGGA,134851.503,4559.780,N,00441.784,E,1,12,1.0,94.0,M,0.0,M,,*6A
$GPGSA,A,3,01,02,03,04,05,06,07,08,09,10,11,12,1.0,1.0,1.0*30
$GPRMC,134851.503,A,4559.780,N,00441.784,E,530.2,075.3,310320,000.0,W*78
$GPGGA,134852.503,4559.832,N,00441.982,E,1,12,1.0,19.0,M,0.0,M,,*67
$GPGSA,A,3,01,02,03,04,05,06,07,08,09,10,11,12,1.0,1.0,1.0*30
$GPRMC,134852.503,A,4559.832,N,00441.982,E,972.3,080.8,310320,000.0,W*7F
$GPGGA,134853.503,4559.893,N,00442.361,E,1,12,1.0,98.0,M,0.0,M,,*69
$GPGSA,A,3,01,02,03,04,05,06,07,08,09,10,11,12,1.0,1.0,1.0*30
$GPRMC,134853.503,A,4559.893,N,00442.361,E,1237.2,090.0,310320,000.0,W*42
$GPGGA,134854.503,4559.893,N,00442.855,E,1,12,1.0,86.0,M,0.0,M,,*62
$GPGSA,A,3,01,02,03,04,05,06,07,08,09,10,11,12,1.0,1.0,1.0*30
$GPRMC,134854.503,A,4559.893,N,00442.855,E,1539.1,109.9,310320,000.0,W*4B
$GPGGA,134855.503,4559.696,N,00443.401,E,1,12,1.0,38.0,M,0.0,M,,*64
$GPGSA,A,3,01,02,03,04,05,06,07,08,09,10,11,12,1.0,1.0,1.0*30
$GPRMC,134855.503,A,4559.696,N,00443.401,E,1742.7,127.5,310320,000.0,W*45
$GPGGA,134856.503,4559.338,N,00443.870,E,1,12,1.0,58.0,M,0.0,M,,*6C
$GPGSA,A,3,01,02,03,04,05,06,07,08,09,10,11,12,1.0,1.0,1.0*30
$GPRMC,134856.503,A,4559.338,N,00443.870,E,1212.3,134.8,310320,000.0,W*46
$GPGGA,134857.503,4559.063,N,00444.148,E,1,12,1.0,90.0,M,0.0,M,,*65
$GPGSA,A,3,01,02,03,04,05,06,07,08,09,10,11,12,1.0,1.0,1.0*30
$GPRMC,134857.503,A,4559.063,N,00444.148,E,1331.9,145.2,310320,000.0,W*49
$GPGGA,134858.503,4558.730,N,00444.379,E,1,12,1.0,41.0,M,0.0,M,,*6A
$GPGSA,A,3,01,02,03,04,05,06,07,08,09,10,11,12,1.0,1.0,1.0*30
$GPRMC,134858.503,A,4558.730,N,00444.379,E,998.2,134.3,310320,000.0,W*72
$GPGGA,134859.503,4558.504,N,00444.611,E,1,12,1.0,56.0,M,0.0,M,,*65
$GPGSA,A,3,01,02,03,04,05,06,07,08,09,10,11,12,1.0,1.0,1.0*30
$GPRMC,134859.503,A,4558.504,N,00444.611,E,738.5,125.6,310320,000.0,W*7B
$GPGGA,134900.503,4558.358,N,00444.817,E,1,12,1.0,28.0,M,0.0,M,,*6F
$GPGSA,A,3,01,02,03,04,05,06,07,08,09,10,11,12,1.0,1.0,1.0*30
$GPRMC,134900.503,A,4558.358,N,00444.817,E,710.1,111.4,310320,000.0,W*7A
$GPGGA,134901.503,4558.261,N,00445.064,E,1,12,1.0,78.0,M,0.0,M,,*68
$GPGSA,A,3,01,02,03,04,05,06,07,08,09,10,11,12,1.0,1.0,1.0*30
$GPRMC,134901.503,A,4558.261,N,00445.064,E,559.8,131.3,310320,000.0,W*7E
$GPGGA,134902.503,4558.139,N,00445.203,E,1,12,1.0,37.0,M,0.0,M,,*66
$GPGSA,A,3,01,02,03,04,05,06,07,08,09,10,11,12,1.0,1.0,1.0*30
$GPRMC,134902.503,A,4558.139,N,00445.203,E,2764.9,135.6,310320,000.0,W*4E
$GPGGA,134903.503,4557.506,N,00445.826,E,1,12,1.0,98.0,M,0.0,M,,*6D
$GPGSA,A,3,01,02,03,04,05,06,07,08,09,10,11,12,1.0,1.0,1.0*30
$GPRMC,134903.503,A,4557.506,N,00445.826,E,2230.1,121.5,310320,000.0,W*4F
$GPGGA,134904.503,4557.098,N,00446.496,E,1,12,1.0,82.0,M,0.0,M,,*6C
$GPGSA,A,3,01,02,03,04,05,06,07,08,09,10,11,12,1.0,1.0,1.0*30
$GPRMC,134904.503,A,4557.098,N,00446.496,E,3687.6,102.7,310320,000.0,W*43
$GPGGA,134905.503,4556.783,N,00447.897,E,1,12,1.0,18.0,M,0.0,M,,*6D
$GPGSA,A,3,01,02,03,04,05,06,07,08,09,10,11,12,1.0,1.0,1.0*30
$GPRMC,134905.503,A,4556.783,N,00447.897,E,3627.5,093.7,310320,000.0,W*42
$GPGGA,134906.503,4556.689,N,00449.339,E,1,12,1.0,73.0,M,0.0,M,,*64
$GPGSA,A,3,01,02,03,04,05,06,07,08,09,10,11,12,1.0,1.0,1.0*30
$GPRMC,134906.503,A,4556.689,N,00449.339,E,2975.3,098.1,310320,000.0,W*49
$GPGGA,134907.503,4556.525,N,00450.503,E,1,12,1.0,10.0,M,0.0,M,,*67
$GPGSA,A,3,01,02,03,04,05,06,07,08,09,10,11,12,1.0,1.0,1.0*30
$GPRMC,134907.503,A,4556.525,N,00450.503,E,4116.0,112.0,310320,000.0,W*40
$GPGGA,134908.503,4555.952,N,00451.924,E,1,12,1.0,17.0,M,0.0,M,,*6F
$GPGSA,A,3,01,02,03,04,05,06,07,08,09,10,11,12,1.0,1.0,1.0*30
$GPRMC,134908.503,A,4555.952,N,00451.924,E,2055.5,119.4,310320,000.0,W*42
$GPGGA,134909.503,4555.593,N,00452.562,E,1,12,1.0,64.0,M,0.0,M,,*62
$GPGSA,A,3,01,02,03,04,05,06,07,08,09,10,11,12,1.0,1.0,1.0*30
$GPRMC,134909.503,A,4555.593,N,00452.562,E,1587.9,125.5,310320,000.0,W*44
$GPGGA,134910.503,4555.278,N,00453.005,E,1,12,1.0,80.0,M,0.0,M,,*6D
$GPGSA,A,3,01,02,03,04,05,06,07,08,09,10,11,12,1.0,1.0,1.0*30
$GPRMC,134910.503,A,4555.278,N,00453.005,E,1587.9,125.5,310320,000.0,W*4B